{
"type": "FeatureCollection",
"crs": { "type": "name", "properties": { "name": "urn:ogc:def:crs:OGC:1.3:CRS84" } },
"features": [
{ "type": "Feature", "properties": { "NAME": "Ramallah", "SOV0NAME": "Israel", "ISO_A2": "PS" }, "geometry": { "type": "Point", "coordinates": [ 35.206209378189556, 31.902944751424045 ] } },
{ "type": "Feature", "properties": { "NAME": "Vatican City", "SOV0NAME": "Vatican", "ISO_A2": "VA" }, "geometry": { "type": "Point", "coordinates": [ 12.453386544971767, 41.903282179960108 ] } },
{ "type": "Feature", "properties": { "NAME": "San Marino", "SOV0NAME": "San Marino", "ISO_A2": "SM" }, "geometry": { "type": "Point", "coordinates": [ 12.441770157800141, 43.936095834768004 ] } },
{ "type": "Feature", "properties": { "NAME": "Vaduz", "SOV0NAME": "Liechtenstein", "ISO_A2": "LI" }, "geometry": { "type": "Point", "coordinates": [ 9.516669472907267, 47.133723774293557 ] } },
{ "type": "Feature", "properties": { "NAME": "Luxembourg", "SOV0NAME": "Luxembourg", "ISO_A2": "LU" }, "geometry": { "type": "Point", "coordinates": [ 6.129292069245283, 49.614150755187097 ] } },
{ "type": "Feature", "properties": { "NAME": "Palikir", "SOV0NAME": "Federated States of Micronesia", "ISO_A2": "FM" }, "geometry": { "type": "Point", "coordinates": [ 158.148078351190946, 6.915847717682386 ] } },
{ "type": "Feature", "properties": { "NAME": "Yaren", "SOV0NAME": "Nauru", "ISO_A2": "NR" }, "geometry": { "type": "Point", "coordinates": [ 166.954317748868533, -0.491728433889067 ] } },
{ "type": "Feature", "properties": { "NAME": "Funafuti", "SOV0NAME": "Tuvalu", "ISO_A2": "TV" }, "geometry": { "type": "Point", "coordinates": [ 179.216198732961061, -8.514832881566541 ] } },
{ "type": "Feature", "properties": { "NAME": "Melekeok", "SOV0NAME": "Palau", "ISO_A2": "PW" }, "geometry": { "type": "Point", "coordinates": [ 134.627775532182682, 7.488661204265473 ] } },
{ "type": "Feature", "properties": { "NAME": "Monaco", "SOV0NAME": "Monaco", "ISO_A2": "MC" }, "geometry": { "type": "Point", "coordinates": [ 7.406001210049991, 43.736778159229772 ] } },
{ "type": "Feature", "properties": { "NAME": "Tarawa", "SOV0NAME": "Kiribati", "ISO_A2": "KI" }, "geometry": { "type": "Point", "coordinates": [ -158.586431543832845, 2.043308872224917 ] } },
{ "type": "Feature", "properties": { "NAME": "Moroni", "SOV0NAME": "Comoros", "ISO_A2": "KM" }, "geometry": { "type": "Point", "coordinates": [ 43.273577732306066, -11.704956996047748 ] } },
{ "type": "Feature", "properties": { "NAME": "Andorra", "SOV0NAME": "Andorra", "ISO_A2": "AD" }, "geometry": { "type": "Point", "coordinates": [ 1.51648596050552, 42.500001443545898 ] } },
{ "type": "Feature", "properties": { "NAME": "Port-of-Spain", "SOV0NAME": "Trinidad and Tobago", "ISO_A2": "TT" }, "geometry": { "type": "Point", "coordinates": [ -61.272339202443128, 10.718267060925621 ] } },
{ "type": "Feature", "properties": { "NAME": "Kigali", "SOV0NAME": "Rwanda", "ISO_A2": "RW" }, "geometry": { "type": "Point", "coordinates": [ 30.058585919064114, -1.951644210063306 ] } },
{ "type": "Feature", "properties": { "NAME": "Mbabane", "SOV0NAME": "Swaziland", "ISO_A2": "SZ" }, "geometry": { "type": "Point", "coordinates": [ 31.133334512056358, -26.316650778409201 ] } },
{ "type": "Feature", "properties": { "NAME": "Juba", "SOV0NAME": "South Sudan", "ISO_A2": "SS" }, "geometry": { "type": "Point", "coordinates": [ 31.580025592787301, 4.829975198277962 ] } },
{ "type": "Feature", "properties": { "NAME": "Ljubljana", "SOV0NAME": "Slovenia", "ISO_A2": "SI" }, "geometry": { "type": "Point", "coordinates": [ 14.514969033474127, 46.055288308794509 ] } },
{ "type": "Feature", "properties": { "NAME": "Bratislava", "SOV0NAME": "Slovakia", "ISO_A2": "SK" }, "geometry": { "type": "Point", "coordinates": [ 17.262442978081513, 48.158464184939042 ] } },
{ "type": "Feature", "properties": { "NAME": "Doha", "SOV0NAME": "Qatar", "ISO_A2": "QA" }, "geometry": { "type": "Point", "coordinates": [ 51.532967894299304, 25.286556008906583 ] } },
{ "type": "Feature", "properties": { "NAME": "Podgorica", "SOV0NAME": "Montenegro", "ISO_A2": "ME" }, "geometry": { "type": "Point", "coordinates": [ 19.266306924118222, 42.46597251288172 ] } },
{ "type": "Feature", "properties": { "NAME": "Sri Jawewardenepura Kotte", "SOV0NAME": "Sri Lanka", "ISO_A2": "LK" }, "geometry": { "type": "Point", "coordinates": [ 79.949993040897468, 6.900003884809621 ] } },
{ "type": "Feature", "properties": { "NAME": "Dodoma", "SOV0NAME": "Tanzania", "ISO_A2": "TZ" }, "geometry": { "type": "Point", "coordinates": [ 35.750003620147652, -6.183306051766181 ] } },
{ "type": "Feature", "properties": { "NAME": "Bern", "SOV0NAME": "Switzerland", "ISO_A2": "CH" }, "geometry": { "type": "Point", "coordinates": [ 7.46697546248242, 46.91668275866769 ] } },
{ "type": "Feature", "properties": { "NAME": "Laayoune", "SOV0NAME": "Morocco", "ISO_A2": "MA" }, "geometry": { "type": "Point", "coordinates": [ -13.200005942222672, 27.149982319135443 ] } },
{ "type": "Feature", "properties": { "NAME": "Pristina", "SOV0NAME": "Kosovo", "ISO_A2": "XK" }, "geometry": { "type": "Point", "coordinates": [ 21.165984251599859, 42.666709614119377 ] } },
{ "type": "Feature", "properties": { "NAME": "Roseau", "SOV0NAME": "Dominica", "ISO_A2": "DM" }, "geometry": { "type": "Point", "coordinates": [ -61.379719856888435, 15.298762209724741 ] } },
{ "type": "Feature", "properties": { "NAME": "Djibouti", "SOV0NAME": "Djibouti", "ISO_A2": "DJ" }, "geometry": { "type": "Point", "coordinates": [ 43.00972624019451, 11.513194478248028 ] } },
{ "type": "Feature", "properties": { "NAME": "Putrajaya", "SOV0NAME": "Malaysia", "ISO_A2": "MY" }, "geometry": { "type": "Point", "coordinates": [ 101.701946979786499, 2.914019794624551 ] } },
{ "type": "Feature", "properties": { "NAME": "Banjul", "SOV0NAME": "The Gambia", "ISO_A2": "GM" }, "geometry": { "type": "Point", "coordinates": [ -16.569017882017363, 13.443170150553934 ] } },
{ "type": "Feature", "properties": { "NAME": "Skopje", "SOV0NAME": "Macedonia", "ISO_A2": "MK" }, "geometry": { "type": "Point", "coordinates": [ 21.433461465142496, 42.000006122905852 ] } },
{ "type": "Feature", "properties": { "NAME": "Bridgetown", "SOV0NAME": "Barbados", "ISO_A2": "BB" }, "geometry": { "type": "Point", "coordinates": [ -59.569923958292257, 13.13269707851874 ] } },
{ "type": "Feature", "properties": { "NAME": "Porto-Novo", "SOV0NAME": "Benin", "ISO_A2": "BJ" }, "geometry": { "type": "Point", "coordinates": [ 2.61662552756718, 6.48331097302423 ] } },
{ "type": "Feature", "properties": { "NAME": "Bujumbura", "SOV0NAME": "Burundi", "ISO_A2": "BI" }, "geometry": { "type": "Point", "coordinates": [ 29.360006061528388, -3.376087220374643 ] } },
{ "type": "Feature", "properties": { "NAME": "Kingstown", "SOV0NAME": "Saint Vincent and the Grenadines", "ISO_A2": "VC" }, "geometry": { "type": "Point", "coordinates": [ -61.182501677506544, 13.146855896836289 ] } },
{ "type": "Feature", "properties": { "NAME": "Castries", "SOV0NAME": "Saint Lucia", "ISO_A2": "LC" }, "geometry": { "type": "Point", "coordinates": [ -60.99962974198035, 14.016023580558802 ] } },
{ "type": "Feature", "properties": { "NAME": "Basseterre", "SOV0NAME": "Saint Kitts and Nevis", "ISO_A2": "KN" }, "geometry": { "type": "Point", "coordinates": [ -62.717399408658643, 17.302925678819324 ] } },
{ "type": "Feature", "properties": { "NAME": "Port Louis", "SOV0NAME": "Mauritius", "ISO_A2": "MU" }, "geometry": { "type": "Point", "coordinates": [ 57.501916717046271, -20.167279997690716 ] } },
{ "type": "Feature", "properties": { "NAME": "Saint George's", "SOV0NAME": "Grenada", "ISO_A2": "GD" }, "geometry": { "type": "Point", "coordinates": [ -61.728746462075669, 12.055879664799535 ] } },
{ "type": "Feature", "properties": { "NAME": "Manama", "SOV0NAME": "Bahrain", "ISO_A2": "BH" }, "geometry": { "type": "Point", "coordinates": [ 50.739758323611916, 26.481482290613304 ] } },
{ "type": "Feature", "properties": { "NAME": "Saint John's", "SOV0NAME": "Antigua and Barbuda", "ISO_A2": "AG" }, "geometry": { "type": "Point", "coordinates": [ -61.822073403960218, 17.087087990360466 ] } },
{ "type": "Feature", "properties": { "NAME": "Montevideo", "SOV0NAME": "Uruguay", "ISO_A2": "UY" }, "geometry": { "type": "Point", "coordinates": [ -56.172998147035962, -34.856095707590747 ] } },
{ "type": "Feature", "properties": { "NAME": "Lome", "SOV0NAME": "Togo", "ISO_A2": "TG" }, "geometry": { "type": "Point", "coordinates": [ 1.22081126074562, 6.133882930268385 ] } },
{ "type": "Feature", "properties": { "NAME": "Tunis", "SOV0NAME": "Tunisia", "ISO_A2": "TN" }, "geometry": { "type": "Point", "coordinates": [ 10.595253093936941, 37.062520529646569 ] } },
{ "type": "Feature", "properties": { "NAME": "Abu Dhabi", "SOV0NAME": "United Arab Emirates", "ISO_A2": "AE" }, "geometry": { "type": "Point", "coordinates": [ 54.440843996731594, 24.397267462108157 ] } },
{ "type": "Feature", "properties": { "NAME": "Ashgabat", "SOV0NAME": "Turkmenistan", "ISO_A2": "TM" }, "geometry": { "type": "Point", "coordinates": [ 58.383299111774654, 37.949994933111149 ] } },
{ "type": "Feature", "properties": { "NAME": "Lusaka", "SOV0NAME": "Zambia", "ISO_A2": "ZM" }, "geometry": { "type": "Point", "coordinates": [ 28.281381736114263, -15.414698409335928 ] } },
{ "type": "Feature", "properties": { "NAME": "Harare", "SOV0NAME": "Zimbabwe", "ISO_A2": "ZW" }, "geometry": { "type": "Point", "coordinates": [ 31.042763572062828, -17.815843835777795 ] } },
{ "type": "Feature", "properties": { "NAME": "Dili", "SOV0NAME": "Timor Leste", "ISO_A2": "TL" }, "geometry": { "type": "Point", "coordinates": [ 125.579455931705056, -8.559388408546468 ] } },
{ "type": "Feature", "properties": { "NAME": "Port Vila", "SOV0NAME": "Vanuatu", "ISO_A2": "VU" }, "geometry": { "type": "Point", "coordinates": [ 167.488971450957962, -16.009378597461389 ] } },
{ "type": "Feature", "properties": { "NAME": "Tegucigalpa", "SOV0NAME": "Honduras", "ISO_A2": "HN" }, "geometry": { "type": "Point", "coordinates": [ -87.219475197941506, 14.103990759076398 ] } },
{ "type": "Feature", "properties": { "NAME": "Georgetown", "SOV0NAME": "Guyana", "ISO_A2": "GY" }, "geometry": { "type": "Point", "coordinates": [ -58.167028647480592, 6.801973692752027 ] } },
{ "type": "Feature", "properties": { "NAME": "Reykjav k", "SOV0NAME": "Iceland", "ISO_A2": "IS" }, "geometry": { "type": "Point", "coordinates": [ -21.42044284217986, 64.195147024957734 ] } },
{ "type": "Feature", "properties": { "NAME": "Port-au-Prince", "SOV0NAME": "Haiti", "ISO_A2": "HT" }, "geometry": { "type": "Point", "coordinates": [ -72.337980446905519, 18.542970454732359 ] } },
{ "type": "Feature", "properties": { "NAME": "Kampala", "SOV0NAME": "Uganda", "ISO_A2": "UG" }, "geometry": { "type": "Point", "coordinates": [ 32.714132380492458, 0.208057070607024 ] } },
{ "type": "Feature", "properties": { "NAME": "Paramaribo", "SOV0NAME": "Suriname", "ISO_A2": "SR" }, "geometry": { "type": "Point", "coordinates": [ -55.167030885424346, 5.835030129922585 ] } },
{ "type": "Feature", "properties": { "NAME": "Niamey", "SOV0NAME": "Niger", "ISO_A2": "NE" }, "geometry": { "type": "Point", "coordinates": [ 2.114710186530373, 13.518651810506471 ] } },
{ "type": "Feature", "properties": { "NAME": "Dushanbe", "SOV0NAME": "Tajikistan", "ISO_A2": "TJ" }, "geometry": { "type": "Point", "coordinates": [ 68.773879352701712, 38.560035216316507 ] } },
{ "type": "Feature", "properties": { "NAME": "Asuncion", "SOV0NAME": "Paraguay", "ISO_A2": "PY" }, "geometry": { "type": "Point", "coordinates": [ -57.643451027901335, -25.294457117057668 ] } },
{ "type": "Feature", "properties": { "NAME": "Managua", "SOV0NAME": "Nicaragua", "ISO_A2": "NI" }, "geometry": { "type": "Point", "coordinates": [ -86.270437518901176, 12.154962438756115 ] } },
{ "type": "Feature", "properties": { "NAME": "Freetown", "SOV0NAME": "Sierra Leone", "ISO_A2": "SL" }, "geometry": { "type": "Point", "coordinates": [ -13.150795946011277, 8.471957271098189 ] } },
{ "type": "Feature", "properties": { "NAME": "Islamabad", "SOV0NAME": "Pakistan", "ISO_A2": "PK" }, "geometry": { "type": "Point", "coordinates": [ 73.16468862105954, 33.701941808959596 ] } },
{ "type": "Feature", "properties": { "NAME": "Kathmandu", "SOV0NAME": "Nepal", "ISO_A2": "NP" }, "geometry": { "type": "Point", "coordinates": [ 85.314696352227884, 27.718637772477187 ] } },
{ "type": "Feature", "properties": { "NAME": "Pretoria", "SOV0NAME": "South Africa", "ISO_A2": "ZA" }, "geometry": { "type": "Point", "coordinates": [ 28.227483217233832, -25.704974695184429 ] } },
{ "type": "Feature", "properties": { "NAME": "Port Moresby", "SOV0NAME": "Papua New Guinea", "ISO_A2": "PG" }, "geometry": { "type": "Point", "coordinates": [ 147.192503620593584, -9.464707825867846 ] } },
{ "type": "Feature", "properties": { "NAME": "Honiara", "SOV0NAME": "Solomon Islands", "ISO_A2": "SB" }, "geometry": { "type": "Point", "coordinates": [ 159.949765733605659, -9.437994295089663 ] } },
{ "type": "Feature", "properties": { "NAME": "Panama City", "SOV0NAME": "Panama", "ISO_A2": "PA" }, "geometry": { "type": "Point", "coordinates": [ -79.534983010410755, 8.969963049094902 ] } },
{ "type": "Feature", "properties": { "NAME": "Rabat", "SOV0NAME": "Morocco", "ISO_A2": "MA" }, "geometry": { "type": "Point", "coordinates": [ -6.83640815612614, 34.025307311072829 ] } },
{ "type": "Feature", "properties": { "NAME": "Chisinau", "SOV0NAME": "Moldova", "ISO_A2": "MD" }, "geometry": { "type": "Point", "coordinates": [ 28.857711139651425, 47.005023619670624 ] } },
{ "type": "Feature", "properties": { "NAME": "Maputo", "SOV0NAME": "Mozambique", "ISO_A2": "MZ" }, "geometry": { "type": "Point", "coordinates": [ 32.499265508532602, -25.922450016255407 ] } },
{ "type": "Feature", "properties": { "NAME": "Mogadishu", "SOV0NAME": "Somalia", "ISO_A2": "SO" }, "geometry": { "type": "Point", "coordinates": [ 45.364731752458731, 2.068627192947625 ] } },
{ "type": "Feature", "properties": { "NAME": "Muscat", "SOV0NAME": "Oman", "ISO_A2": "OM" }, "geometry": { "type": "Point", "coordinates": [ 58.537280515053105, 23.509630495532061 ] } },
{ "type": "Feature", "properties": { "NAME": "Ulaanbaatar", "SOV0NAME": "Mongolia", "ISO_A2": "MN" }, "geometry": { "type": "Point", "coordinates": [ 106.914669903746486, 47.918619258560739 ] } },
{ "type": "Feature", "properties": { "NAME": "Windhoek", "SOV0NAME": "Namibia", "ISO_A2": "NA" }, "geometry": { "type": "Point", "coordinates": [ 17.083546100541806, -22.570006084383802 ] } },
{ "type": "Feature", "properties": { "NAME": "Abuja", "SOV0NAME": "Nigeria", "ISO_A2": "NG" }, "geometry": { "type": "Point", "coordinates": [ 7.531382142932326, 9.085279007754233 ] } },
{ "type": "Feature", "properties": { "NAME": "Bissau", "SOV0NAME": "Guinea Bissau", "ISO_A2": "GW" }, "geometry": { "type": "Point", "coordinates": [ -15.598360841320755, 11.865023822980559 ] } },
{ "type": "Feature", "properties": { "NAME": "Amman", "SOV0NAME": "Jordan", "ISO_A2": "JO" }, "geometry": { "type": "Point", "coordinates": [ 35.931354066874121, 31.951971105827461 ] } },
{ "type": "Feature", "properties": { "NAME": "Vilnius", "SOV0NAME": "Lithuania", "ISO_A2": "LT" }, "geometry": { "type": "Point", "coordinates": [ 25.316635293282893, 54.683366311758633 ] } },
{ "type": "Feature", "properties": { "NAME": "Riga", "SOV0NAME": "Latvia", "ISO_A2": "LV" }, "geometry": { "type": "Point", "coordinates": [ 23.837659514453222, 57.237540164763914 ] } },
{ "type": "Feature", "properties": { "NAME": "Bishkek", "SOV0NAME": "Kyrgyzstan", "ISO_A2": "KG" }, "geometry": { "type": "Point", "coordinates": [ 74.583258363903653, 42.875025305090098 ] } },
{ "type": "Feature", "properties": { "NAME": "Maseru", "SOV0NAME": "Lesotho", "ISO_A2": "LS" }, "geometry": { "type": "Point", "coordinates": [ 27.48327306998447, -29.316674378681764 ] } },
{ "type": "Feature", "properties": { "NAME": "Antananarivo", "SOV0NAME": "Madagascar", "ISO_A2": "MG" }, "geometry": { "type": "Point", "coordinates": [ 47.514678041529869, -18.914691492032148 ] } },
{ "type": "Feature", "properties": { "NAME": "Quito", "SOV0NAME": "Ecuador", "ISO_A2": "EC" }, "geometry": { "type": "Point", "coordinates": [ -78.50199696711239, -0.213042322035562 ] } },
{ "type": "Feature", "properties": { "NAME": "San Jose", "SOV0NAME": "Costa Rica", "ISO_A2": "CR" }, "geometry": { "type": "Point", "coordinates": [ -84.085997211275341, 9.936958288356754 ] } },
{ "type": "Feature", "properties": { "NAME": "San Salvador", "SOV0NAME": "El Salvador", "ISO_A2": "SV" }, "geometry": { "type": "Point", "coordinates": [ -89.204987079459897, 13.711947505494036 ] } },
{ "type": "Feature", "properties": { "NAME": "Kingston", "SOV0NAME": "Jamaica", "ISO_A2": "JM" }, "geometry": { "type": "Point", "coordinates": [ -76.767433713669092, 17.977076623830897 ] } },
{ "type": "Feature", "properties": { "NAME": "Ndjamena", "SOV0NAME": "Chad", "ISO_A2": "TD" }, "geometry": { "type": "Point", "coordinates": [ 15.047202455462294, 12.115042394810644 ] } },
{ "type": "Feature", "properties": { "NAME": "Malabo", "SOV0NAME": "Equatorial Guinea", "ISO_A2": "GQ" }, "geometry": { "type": "Point", "coordinates": [ 8.774396853118702, 3.706118108474046 ] } },
{ "type": "Feature", "properties": { "NAME": "Asmara", "SOV0NAME": "Eritrea", "ISO_A2": "ER" }, "geometry": { "type": "Point", "coordinates": [ 38.933323525759299, 15.333339252681924 ] } },
{ "type": "Feature", "properties": { "NAME": "Zagreb", "SOV0NAME": "Croatia", "ISO_A2": "HR" }, "geometry": { "type": "Point", "coordinates": [ 15.999994668245673, 45.800006733272539 ] } },
{ "type": "Feature", "properties": { "NAME": "Tallinn", "SOV0NAME": "Estonia", "ISO_A2": "EE" }, "geometry": { "type": "Point", "coordinates": [ 24.728040729478543, 59.433877379485963 ] } },
{ "type": "Feature", "properties": { "NAME": "Lilongwe", "SOV0NAME": "Malawi", "ISO_A2": "MW" }, "geometry": { "type": "Point", "coordinates": [ 33.783301959983525, -13.983295065469179 ] } },
{ "type": "Feature", "properties": { "NAME": "Guatemala", "SOV0NAME": "Guatemala", "ISO_A2": "GT" }, "geometry": { "type": "Point", "coordinates": [ -90.528911436561529, 14.623080521448175 ] } },
{ "type": "Feature", "properties": { "NAME": "Libreville", "SOV0NAME": "Gabon", "ISO_A2": "GA" }, "geometry": { "type": "Point", "coordinates": [ 9.457965045823697, 0.385388609718518 ] } },
{ "type": "Feature", "properties": { "NAME": "Suva", "SOV0NAME": "Fiji", "ISO_A2": "FJ" }, "geometry": { "type": "Point", "coordinates": [ 178.441707315379801, -18.133015931371229 ] } },
{ "type": "Feature", "properties": { "NAME": "Nouakchott", "SOV0NAME": "Mauritania", "ISO_A2": "MR" }, "geometry": { "type": "Point", "coordinates": [ -15.975340414890013, 18.086427021247516 ] } },
{ "type": "Feature", "properties": { "NAME": "Bamako", "SOV0NAME": "Mali", "ISO_A2": "ML" }, "geometry": { "type": "Point", "coordinates": [ -8.001984963249695, 12.651960526323249 ] } },
{ "type": "Feature", "properties": { "NAME": "Beirut", "SOV0NAME": "Lebanon", "ISO_A2": "LB" }, "geometry": { "type": "Point", "coordinates": [ 35.588030488452794, 33.879819974527244 ] } },
{ "type": "Feature", "properties": { "NAME": "Tbilisi", "SOV0NAME": "Georgia", "ISO_A2": "GE" }, "geometry": { "type": "Point", "coordinates": [ 44.78884959099797, 41.726955847077583 ] } },
{ "type": "Feature", "properties": { "NAME": "Astana", "SOV0NAME": "Kazakhstan", "ISO_A2": "KZ" }, "geometry": { "type": "Point", "coordinates": [ 71.42777420948299, 51.181125304257577 ] } },
{ "type": "Feature", "properties": { "NAME": "Vientiane", "SOV0NAME": "Laos", "ISO_A2": "LA" }, "geometry": { "type": "Point", "coordinates": [ 102.599980020154746, 17.966692727627386 ] } },
{ "type": "Feature", "properties": { "NAME": "Brazzaville", "SOV0NAME": "Congo Republic", "ISO_A2": "CG" }, "geometry": { "type": "Point", "coordinates": [ 15.264203412896217, -4.240818927389082 ] } },
{ "type": "Feature", "properties": { "NAME": "Conakry", "SOV0NAME": "Guinea", "ISO_A2": "GN" }, "geometry": { "type": "Point", "coordinates": [ -13.436775329191123, 9.62855597212606 ] } },
{ "type": "Feature", "properties": { "NAME": "Yamoussoukro", "SOV0NAME": "Ivory Coast", "ISO_A2": "CI" }, "geometry": { "type": "Point", "coordinates": [ -5.2755025649123, 6.818380960004617 ] } },
{ "type": "Feature", "properties": { "NAME": "Ottawa", "SOV0NAME": "Canada", "ISO_A2": "CA" }, "geometry": { "type": "Point", "coordinates": [ -75.7019611598095, 45.418642655360436 ] } },
{ "type": "Feature", "properties": { "NAME": "Belgrade", "SOV0NAME": "Serbia", "ISO_A2": "RS" }, "geometry": { "type": "Point", "coordinates": [ 20.466044822020532, 44.820591304446722 ] } },
{ "type": "Feature", "properties": { "NAME": "Bandar Seri Begawan", "SOV0NAME": "Brunei", "ISO_A2": "BN" }, "geometry": { "type": "Point", "coordinates": [ 114.933284056662274, 4.883331114619237 ] } },
{ "type": "Feature", "properties": { "NAME": "Belmopan", "SOV0NAME": "Belize", "ISO_A2": "BZ" }, "geometry": { "type": "Point", "coordinates": [ -88.767072999816548, 17.252033507246885 ] } },
{ "type": "Feature", "properties": { "NAME": "Bangui", "SOV0NAME": "Central African Republic", "ISO_A2": "CF" }, "geometry": { "type": "Point", "coordinates": [ 18.558288125287273, 4.366644306349085 ] } },
{ "type": "Feature", "properties": { "NAME": "Yaounde", "SOV0NAME": "Cameroon", "ISO_A2": "CM" }, "geometry": { "type": "Point", "coordinates": [ 11.514704896854424, 3.868646520754112 ] } },
{ "type": "Feature", "properties": { "NAME": "Tirana", "SOV0NAME": "Albania", "ISO_A2": "AL" }, "geometry": { "type": "Point", "coordinates": [ 19.556718223574478, 41.264725608047307 ] } },
{ "type": "Feature", "properties": { "NAME": "Yerevan", "SOV0NAME": "Armenia", "ISO_A2": "AM" }, "geometry": { "type": "Point", "coordinates": [ 44.511605531752082, 40.183096594141873 ] } },
{ "type": "Feature", "properties": { "NAME": "Baku", "SOV0NAME": "Azerbaijan", "ISO_A2": "AZ" }, "geometry": { "type": "Point", "coordinates": [ 49.606180542098038, 40.381649789948703 ] } },
{ "type": "Feature", "properties": { "NAME": "Phnom Penh", "SOV0NAME": "Cambodia", "ISO_A2": "KH" }, "geometry": { "type": "Point", "coordinates": [ 104.914688621186414, 11.551975988558413 ] } },
{ "type": "Feature", "properties": { "NAME": "La Paz", "SOV0NAME": "Bolivia", "ISO_A2": "BO" }, "geometry": { "type": "Point", "coordinates": [ -68.151931049102174, -16.496027755043372 ] } },
{ "type": "Feature", "properties": { "NAME": "Sofia", "SOV0NAME": "Bulgaria", "ISO_A2": "BG" }, "geometry": { "type": "Point", "coordinates": [ 23.314708152110082, 42.685295283930536 ] } },
{ "type": "Feature", "properties": { "NAME": "Minsk", "SOV0NAME": "Belarus", "ISO_A2": "BY" }, "geometry": { "type": "Point", "coordinates": [ 27.564681296658243, 53.901923295043105 ] } },
{ "type": "Feature", "properties": { "NAME": "Thimphu", "SOV0NAME": "Bhutan", "ISO_A2": "BT" }, "geometry": { "type": "Point", "coordinates": [ 89.63901403702998, 27.472985859175733 ] } },
{ "type": "Feature", "properties": { "NAME": "Gaborone", "SOV0NAME": "Botswana", "ISO_A2": "BW" }, "geometry": { "type": "Point", "coordinates": [ 25.911947793285371, -24.646313457438907 ] } },
{ "type": "Feature", "properties": { "NAME": "Canberra", "SOV0NAME": "Australia", "ISO_A2": "AU" }, "geometry": { "type": "Point", "coordinates": [ 149.129026244299183, -35.283028545372098 ] } },
{ "type": "Feature", "properties": { "NAME": "Ouagadougou", "SOV0NAME": "Burkina Faso", "ISO_A2": "BF" }, "geometry": { "type": "Point", "coordinates": [ -1.526669614916443, 12.372261836543371 ] } },
{ "type": "Feature", "properties": { "NAME": "Sarajevo", "SOV0NAME": "Bosnia and Herzegovina", "ISO_A2": "BA" }, "geometry": { "type": "Point", "coordinates": [ 18.383001666953305, 43.850022398954927 ] } },
{ "type": "Feature", "properties": { "NAME": "Naypyidaw", "SOV0NAME": "Myanmar", "ISO_A2": "MM" }, "geometry": { "type": "Point", "coordinates": [ 96.116672670630351, 19.768502884750145 ] } },
{ "type": "Feature", "properties": { "NAME": "Nukualofa", "SOV0NAME": "Tonga", "ISO_A2": "TO" }, "geometry": { "type": "Point", "coordinates": [ -175.225456619889059, -21.135432896456049 ] } },
{ "type": "Feature", "properties": { "NAME": "Victoria", "SOV0NAME": "Seychelles", "ISO_A2": "SC" }, "geometry": { "type": "Point", "coordinates": [ 55.44689078936441, -4.619291085220226 ] } },
{ "type": "Feature", "properties": { "NAME": "Sao Tome", "SOV0NAME": "Sao Tome and Principe", "ISO_A2": "ST" }, "geometry": { "type": "Point", "coordinates": [ 6.73594026255866, 0.337348103131282 ] } },
{ "type": "Feature", "properties": { "NAME": "Apia", "SOV0NAME": "Samoa", "ISO_A2": "WS" }, "geometry": { "type": "Point", "coordinates": [ -171.74970678843286, -13.845672539441249 ] } },
{ "type": "Feature", "properties": { "NAME": "Valletta", "SOV0NAME": "Malta", "ISO_A2": "MT" }, "geometry": { "type": "Point", "coordinates": [ 14.514710651312784, 35.89973248193089 ] } },
{ "type": "Feature", "properties": { "NAME": "Male", "SOV0NAME": "Maldives", "ISO_A2": "MV" }, "geometry": { "type": "Point", "coordinates": [ 73.495779397774598, 4.174271400301259 ] } },
{ "type": "Feature", "properties": { "NAME": "Praia", "SOV0NAME": "Cape Verde", "ISO_A2": "CV" }, "geometry": { "type": "Point", "coordinates": [ -23.530260487609652, 15.02192878655117 ] } },
{ "type": "Feature", "properties": { "NAME": "Nassau", "SOV0NAME": "Bahamas", "ISO_A2": "BS" }, "geometry": { "type": "Point", "coordinates": [ -77.135132037520492, 25.103589577844357 ] } },
{ "type": "Feature", "properties": { "NAME": "Nicosia", "SOV0NAME": "Cyprus", "ISO_A2": "CY" }, "geometry": { "type": "Point", "coordinates": [ 33.366634886414147, 35.166676451654517 ] } },
{ "type": "Feature", "properties": { "NAME": "Hanoi", "SOV0NAME": "Vietnam", "ISO_A2": "VN" }, "geometry": { "type": "Point", "coordinates": [ 105.848068341242183, 21.035273107737058 ] } },
{ "type": "Feature", "properties": { "NAME": "Ankara", "SOV0NAME": "Turkey", "ISO_A2": "TR" }, "geometry": { "type": "Point", "coordinates": [ 32.862445782356644, 39.929184444075474 ] } },
{ "type": "Feature", "properties": { "NAME": "Budapest", "SOV0NAME": "Hungary", "ISO_A2": "HU" }, "geometry": { "type": "Point", "coordinates": [ 19.081374818759684, 47.501952184991346 ] } },
{ "type": "Feature", "properties": { "NAME": "Sanaa", "SOV0NAME": "Yemen", "ISO_A2": "YE" }, "geometry": { "type": "Point", "coordinates": [ 44.204647523938434, 15.356679154263642 ] } },
{ "type": "Feature", "properties": { "NAME": "Bucharest", "SOV0NAME": "Romania", "ISO_A2": "RO" }, "geometry": { "type": "Point", "coordinates": [ 26.098000795350394, 44.435317663494565 ] } },
{ "type": "Feature", "properties": { "NAME": "Damascus", "SOV0NAME": "Syria", "ISO_A2": "SY" }, "geometry": { "type": "Point", "coordinates": [ 36.298050030417066, 33.501979854206134 ] } },
{ "type": "Feature", "properties": { "NAME": "Lisbon", "SOV0NAME": "Portugal", "ISO_A2": "PT" }, "geometry": { "type": "Point", "coordinates": [ -9.146812164102128, 38.724668736487814 ] } },
{ "type": "Feature", "properties": { "NAME": "Khartoum", "SOV0NAME": "Sudan", "ISO_A2": "SD" }, "geometry": { "type": "Point", "coordinates": [ 32.532233380011576, 15.590024084277673 ] } },
{ "type": "Feature", "properties": { "NAME": "Oslo", "SOV0NAME": "Norway", "ISO_A2": "NO" }, "geometry": { "type": "Point", "coordinates": [ 10.563570138790149, 59.387867499127267 ] } },
{ "type": "Feature", "properties": { "NAME": "Warsaw", "SOV0NAME": "Poland", "ISO_A2": "PL" }, "geometry": { "type": "Point", "coordinates": [ 20.998053692465298, 52.251946488395561 ] } },
{ "type": "Feature", "properties": { "NAME": "Pyongyang", "SOV0NAME": "North Korea", "ISO_A2": "KP" }, "geometry": { "type": "Point", "coordinates": [ 125.752744854993878, 39.021384558004335 ] } },
{ "type": "Feature", "properties": { "NAME": "Dublin", "SOV0NAME": "Ireland", "ISO_A2": "IE" }, "geometry": { "type": "Point", "coordinates": [ -6.250851540391066, 53.33500699458493 ] } },
{ "type": "Feature", "properties": { "NAME": "Monrovia", "SOV0NAME": "Liberia", "ISO_A2": "LR" }, "geometry": { "type": "Point", "coordinates": [ -10.459958574628885, 6.449781112033519 ] } },
{ "type": "Feature", "properties": { "NAME": "Havana", "SOV0NAME": "Cuba", "ISO_A2": "CU" }, "geometry": { "type": "Point", "coordinates": [ -82.366128029953288, 23.133904699542203 ] } },
{ "type": "Feature", "properties": { "NAME": "Prague", "SOV0NAME": "Czech Republic", "ISO_A2": "CZ" }, "geometry": { "type": "Point", "coordinates": [ 14.464033917048539, 50.085282873478313 ] } },
{ "type": "Feature", "properties": { "NAME": "Kuwait", "SOV0NAME": "Kuwait", "ISO_A2": "KW" }, "geometry": { "type": "Point", "coordinates": [ 48.110909938039939, 29.364532745174376 ] } },
{ "type": "Feature", "properties": { "NAME": "Santo Domingo", "SOV0NAME": "Dominican Republic", "ISO_A2": "DO" }, "geometry": { "type": "Point", "coordinates": [ -69.902030943315012, 18.472018713195371 ] } },
{ "type": "Feature", "properties": { "NAME": "Accra", "SOV0NAME": "Ghana", "ISO_A2": "GH" }, "geometry": { "type": "Point", "coordinates": [ -0.218661598960693, 5.551980464445933 ] } },
{ "type": "Feature", "properties": { "NAME": "Tripoli", "SOV0NAME": "Libya", "ISO_A2": "LY" }, "geometry": { "type": "Point", "coordinates": [ 13.240565394711622, 32.845646998382648 ] } },
{ "type": "Feature", "properties": { "NAME": "Tel Aviv-Yafo", "SOV0NAME": "Israel", "ISO_A2": "IL" }, "geometry": { "type": "Point", "coordinates": [ 34.718310002142346, 32.110964493063804 ] } },
{ "type": "Feature", "properties": { "NAME": "Helsinki", "SOV0NAME": "Finland", "ISO_A2": "FI" }, "geometry": { "type": "Point", "coordinates": [ 24.932180482845581, 60.17750923256817 ] } },
{ "type": "Feature", "properties": { "NAME": "Kdbenhavn", "SOV0NAME": "Denmark", "ISO_A2": "DK" }, "geometry": { "type": "Point", "coordinates": [ 12.252710591448491, 55.506468607946957 ] } },
{ "type": "Feature", "properties": { "NAME": "Brasilia", "SOV0NAME": "Brazil", "ISO_A2": "BR" }, "geometry": { "type": "Point", "coordinates": [ -47.917998147003054, -15.781394372878987 ] } },
{ "type": "Feature", "properties": { "NAME": "Brussels", "SOV0NAME": "Belgium", "ISO_A2": "BE" }, "geometry": { "type": "Point", "coordinates": [ 4.331370749690449, 50.83526293533032 ] } },
{ "type": "Feature", "properties": { "NAME": "Dhaka", "SOV0NAME": "Bangladesh", "ISO_A2": "BD" }, "geometry": { "type": "Point", "coordinates": [ 90.406633608107541, 23.725005570312817 ] } },
{ "type": "Feature", "properties": { "NAME": "Luanda", "SOV0NAME": "Angola", "ISO_A2": "AO" }, "geometry": { "type": "Point", "coordinates": [ 13.232481182668549, -8.836340255012681 ] } },
{ "type": "Feature", "properties": { "NAME": "Algiers", "SOV0NAME": "Algeria", "ISO_A2": "DZ" }, "geometry": { "type": "Point", "coordinates": [ 3.048606670909237, 36.765010656628185 ] } },
{ "type": "Feature", "properties": { "NAME": "Caracas", "SOV0NAME": "Venezuela", "ISO_A2": "VE" }, "geometry": { "type": "Point", "coordinates": [ -66.918983051050404, 10.502944413033322 ] } },
{ "type": "Feature", "properties": { "NAME": "Kiev", "SOV0NAME": "Ukraine", "ISO_A2": "UA" }, "geometry": { "type": "Point", "coordinates": [ 30.514682110472165, 50.435313187607207 ] } },
{ "type": "Feature", "properties": { "NAME": "Tashkent", "SOV0NAME": "Uzbekistan", "ISO_A2": "UZ" }, "geometry": { "type": "Point", "coordinates": [ 69.292986960887788, 41.313647741607213 ] } },
{ "type": "Feature", "properties": { "NAME": "Madrid", "SOV0NAME": "Spain", "ISO_A2": "ES" }, "geometry": { "type": "Point", "coordinates": [ -3.685297544612523, 40.401972123113786 ] } },
{ "type": "Feature", "properties": { "NAME": "Stockholm", "SOV0NAME": "Sweden", "ISO_A2": "SE" }, "geometry": { "type": "Point", "coordinates": [ 18.376638280361981, 59.21088286659414 ] } },
{ "type": "Feature", "properties": { "NAME": "Bangkok", "SOV0NAME": "Thailand", "ISO_A2": "TH" }, "geometry": { "type": "Point", "coordinates": [ 100.51469879369489, 13.751945064087977 ] } },
{ "type": "Feature", "properties": { "NAME": "Lima", "SOV0NAME": "Peru", "ISO_A2": "PE" }, "geometry": { "type": "Point", "coordinates": [ -77.052007953434725, -12.046066817525572 ] } },
{ "type": "Feature", "properties": { "NAME": "Dakar", "SOV0NAME": "Senegal", "ISO_A2": "SM" }, "geometry": { "type": "Point", "coordinates": [ -17.132577890689625, 14.647958972636397 ] } },
{ "type": "Feature", "properties": { "NAME": "Amsterdam", "SOV0NAME": "Netherlands", "ISO_A2": "NL" }, "geometry": { "type": "Point", "coordinates": [ 4.914694317400972, 52.351914546664418 ] } },
{ "type": "Feature", "properties": { "NAME": "Seoul", "SOV0NAME": "South Korea", "ISO_A2": "KR" }, "geometry": { "type": "Point", "coordinates": [ 126.997785138201934, 37.56829495838906 ] } },
{ "type": "Feature", "properties": { "NAME": "Manila", "SOV0NAME": "Philippines", "ISO_A2": "PH" }, "geometry": { "type": "Point", "coordinates": [ 120.980271303542409, 14.606104813440538 ] } },
{ "type": "Feature", "properties": { "NAME": "Berlin", "SOV0NAME": "Germany", "ISO_A2": "DE" }, "geometry": { "type": "Point", "coordinates": [ 13.399602764700543, 52.523764522251163 ] } },
{ "type": "Feature", "properties": { "NAME": "Kinshasa", "SOV0NAME": "Democratic Republic of the Congo", "ISO_A2": "CD" }, "geometry": { "type": "Point", "coordinates": [ 15.363737314260106, -4.337631484524612 ] } },
{ "type": "Feature", "properties": { "NAME": "New Delhi", "SOV0NAME": "India", "ISO_A2": "IN" }, "geometry": { "type": "Point", "coordinates": [ 77.199980020053019, 28.600023009245334 ] } },
{ "type": "Feature", "properties": { "NAME": "Athens", "SOV0NAME": "Greece", "ISO_A2": "GR" }, "geometry": { "type": "Point", "coordinates": [ 23.658895637734648, 38.021842901545696 ] } },
{ "type": "Feature", "properties": { "NAME": "Baghdad", "SOV0NAME": "Iraq", "ISO_A2": "IQ" }, "geometry": { "type": "Point", "coordinates": [ 44.39192291456412, 33.340594356158633 ] } },
{ "type": "Feature", "properties": { "NAME": "Addis Ababa", "SOV0NAME": "Ethiopia", "ISO_A2": "ET" }, "geometry": { "type": "Point", "coordinates": [ 38.698058575348675, 9.035256221295791 ] } },
{ "type": "Feature", "properties": { "NAME": "Tehran", "SOV0NAME": "Iran", "ISO_A2": "IR" }, "geometry": { "type": "Point", "coordinates": [ 51.422398175008986, 35.673888627001318 ] } },
{ "type": "Feature", "properties": { "NAME": "Buenos Aires", "SOV0NAME": "Argentina", "ISO_A2": "AR" }, "geometry": { "type": "Point", "coordinates": [ -58.399477232331428, -34.600555749907429 ] } },
{ "type": "Feature", "properties": { "NAME": "Kabul", "SOV0NAME": "Afghanistan", "ISO_A2": "AF" }, "geometry": { "type": "Point", "coordinates": [ 69.181314190705052, 34.518636144900313 ] } },
{ "type": "Feature", "properties": { "NAME": "Vienna", "SOV0NAME": "Austria", "ISO_A2": "AT" }, "geometry": { "type": "Point", "coordinates": [ 16.364693096743736, 48.201961136816834 ] } },
{ "type": "Feature", "properties": { "NAME": "Taipei", "SOV0NAME": "Taiwan", "ISO_A2": "TW" }, "geometry": { "type": "Point", "coordinates": [ 121.568333333332987, 25.035833333333301 ] } },
{ "type": "Feature", "properties": { "NAME": "Washington, D.C.", "SOV0NAME": "United States", "ISO_A2": "US" }, "geometry": { "type": "Point", "coordinates": [ -76.609011654172804, 38.47376725516267 ] } },
{ "type": "Feature", "properties": { "NAME": "London", "SOV0NAME": "United Kingdom", "ISO_A2": "GB" }, "geometry": { "type": "Point", "coordinates": [ -0.118667702475932, 51.501940588327493 ] } },
{ "type": "Feature", "properties": { "NAME": "Riyadh", "SOV0NAME": "Saudi Arabia", "ISO_A2": "SA" }, "geometry": { "type": "Point", "coordinates": [ 46.770795798688248, 24.642779007816451 ] } },
{ "type": "Feature", "properties": { "NAME": "Moscow", "SOV0NAME": "Russia", "ISO_A2": "RU" }, "geometry": { "type": "Point", "coordinates": [ 37.613576967271392, 55.754109981248185 ] } },
{ "type": "Feature", "properties": { "NAME": "Mexico City", "SOV0NAME": "Mexico", "ISO_A2": "MX" }, "geometry": { "type": "Point", "coordinates": [ -99.132934060293891, 19.444388301415476 ] } },
{ "type": "Feature", "properties": { "NAME": "Rome", "SOV0NAME": "Italy", "ISO_A2": "IT" }, "geometry": { "type": "Point", "coordinates": [ 12.335036045434475, 41.861693291941847 ] } },
{ "type": "Feature", "properties": { "NAME": "Beijing", "SOV0NAME": "China", "ISO_A2": "CN" }, "geometry": { "type": "Point", "coordinates": [ 116.386339825659419, 39.930838089909052 ] } },
{ "type": "Feature", "properties": { "NAME": "Nairobi", "SOV0NAME": "Kenya", "ISO_A2": "KE" }, "geometry": { "type": "Point", "coordinates": [ 36.814711000471448, -1.281400883237781 ] } },
{ "type": "Feature", "properties": { "NAME": "Jakarta", "SOV0NAME": "Indonesia", "ISO_A2": "ID" }, "geometry": { "type": "Point", "coordinates": [ 106.827491762470117, -6.172471846798882 ] } },
{ "type": "Feature", "properties": { "NAME": "Bogota", "SOV0NAME": "Colombia", "ISO_A2": "CO" }, "geometry": { "type": "Point", "coordinates": [ -74.085289813774409, 4.598369421147823 ] } },
{ "type": "Feature", "properties": { "NAME": "Cairo", "SOV0NAME": "Egypt", "ISO_A2": "EG" }, "geometry": { "type": "Point", "coordinates": [ 31.248022361126118, 30.051906205103698 ] } },
{ "type": "Feature", "properties": { "NAME": "Tokyo", "SOV0NAME": "Japan", "ISO_A2": "JP" }, "geometry": { "type": "Point", "coordinates": [ 139.749461570544668, 35.686962764371181 ] } },
{ "type": "Feature", "properties": { "NAME": "Paris", "SOV0NAME": "France", "ISO_A2": "FR" }, "geometry": { "type": "Point", "coordinates": [ 2.331389467130349, 48.868638789814611 ] } },
{ "type": "Feature", "properties": { "NAME": "Santiago", "SOV0NAME": "Chile", "ISO_A2": "CL" }, "geometry": { "type": "Point", "coordinates": [ -70.668986713174831, -33.448067956934104 ] } },
{ "type": "Feature", "properties": { "NAME": "Singapore", "SOV0NAME": "Singapore", "ISO_A2": "SG" }, "geometry": { "type": "Point", "coordinates": [ 103.859751504545528, 1.29161980223133 ] } },
{ "type": "Feature", "properties": { "NAME": "Wellington", "SOV0NAME": "New Zealand", "ISO_A2": "NZ" }, "geometry": { "type": "Point", "coordinates": [ 175.072863723699015, -41.448773605604124 ] } },
{ "type": "Feature", "properties": { "NAME": "Majuro", "SOV0NAME": "Marshall Islands", "ISO_A2": "MH" }, "geometry": { "type": "Point", "coordinates": [ 171.381158338230676, 7.097119741748006 ] } }
]
}
